[
{"name":"LITTLE ANGELS TODDLER CARE","type":"Daycare+Preschool","address":"12, Balaji Avenue 2nd Street, Thirumalai Pillai Rd, T. Nagar, Chennai, Tamil Nadu 600017","phone":"098843 90540","timing":"9:00-18:00","age":"1-6","budget":"Standard","rating":4.9,"distance":2, "latitude": 13.0405, "longitude": 80.2337},
{"name":"Butterfly Garden Preschool","type":"Preschool","address":"NO.1, KALASTHRI NAGAR EXTENSION, PLOT NO.13 &14, Kavalcheri Rd, Thirumazhisai, Chennai, Tamil Nadu 600124","phone":"080562 64733","timing":"9:00-15:00","age":"2-5","budget":"Premium","rating":4.9,"distance":15, "latitude": 13.0504, "longitude": 80.0526},
{"name":"Shree Kids Preschool and Daycare","type":"Preschool+Daycare","address":"Water Tank, 13, near Balaji Nagar, Kovur, Bhadra Nagar, Moondramkatalai, Chennai, Tamil Nadu 600128","phone":"098840 77855","timing":"7:00-19:00","age":"1.5-7","budget":"Standard","rating":4.9,"distance":12, "latitude": 13.0118, "longitude": 80.1444},
{"name":"Spartan kids International Preschool and Daycare","type":"Preschool+Daycare","address":"Flat no:94 G-1, Sundar Nagar, Poonamallee, Chennai, Tamil Nadu 600056","phone":"09500096930","timing":"8:00-18:00","age":"2-6","budget":"Standard","rating":4.8,"distance":5, "latitude": 13.0489, "longitude": 80.1114},
{"name":"LITTLE BERRIES MONTESSORI PRESCHOOL","type":"Preschool","address":"Old no:51, New no:63, vellala street Opposite Madhar Sha Silks rd, Hotel Lane, near Saravana Bhavan, Purasaiwakkam, Chennai, Tamil Nadu 600084","phone":"09840638000","timing":"8:30-17:00","age":"2-5","budget":"Premium","rating":4.9,"distance":4, "latitude": 13.0851, "longitude": 80.2526},
{"name":"Little Twinklez - Preschool | Daycare | Nursery | Playschool","type":"Preschool+Daycare","address":"No.195, 14th Street, Gandhi Main Rd, Porur Garden-I, Phase I, Vanagaram, Chennai, Tamil Nadu 600116","phone":"09500812811","timing":"9:00-18:00","age":"1.5-8","budget":"Standard","rating":5.0,"distance":6, "latitude": 13.0402, "longitude": 80.1584},
{"name":"FirstCry Intellitots Preschool & Daycare - Anna Nagar, Chennai","type":"Preschool+Daycare","address":"A 52, 5th St, Kumaran Nagar, A Block, Annanagar East, Chennai, Tamil Nadu 600102","phone":"06379526763","timing":"9:00-18:00","age":"1.5-6","budget":"Premium","rating":5.0,"distance":3, "latitude": 13.0850, "longitude": 80.2189},
{"name":"Babies Nest Pre-School & DayCare","type":"Preschool+Daycare","address":"Rasathi Kalaignar Nagar, Mannivakkam Extension, Chennai, Tamil Nadu 600048","phone":"09841863888","timing":"0:00-24:00","age":"1-10","budget":"Standard","rating":4.9,"distance":10, "latitude": 12.8711, "longitude": 80.0658},
{"name":"Kidzee Valasaravakkam","type":"Preschool+Daycare","address":"No 38 Jai Nagar 6th St Valasaravakkam Chennai","phone":"9176273977","timing":"9:00-17:00","age":"2-6","budget":"Standard","rating":4.6,"distance":4, "latitude": 13.0396, "longitude": 80.1772},
{"name":"Kidzee Porur","type":"Preschool+Daycare","address":"25 Samayapuram Main Rd Porur Chennai","phone":"9790705753","timing":"9:00-18:00","age":"2-7","budget":"Standard","rating":4.5,"distance":6, "latitude": 13.0336, "longitude": 80.1506},
{"name":"Kidzee Sholinganallur","type":"Preschool+Daycare","address":"84 Kumaraswamy Nagar Sholinganallur Chennai","phone":"9561272905","timing":"9:00-19:30","age":"1.5-8","budget":"Premium","rating":4.7,"distance":8, "latitude": 12.8953, "longitude": 80.2268},
{"name":"Kidzee Mangadu","type":"Preschool+Daycare","address":"Sri Chakra Nagar Mangadu Chennai","phone":"9962022326","timing":"9:15-18:00","age":"2-6","budget":"Standard","rating":4.3,"distance":7, "latitude": 13.0345, "longitude": 80.1081},
{"name":"Kidzee Adyar","type":"Preschool","address":"1st Ave Shastri Nagar Adyar Chennai","phone":"9884731957","timing":"9:00-14:30","age":"2-5","budget":"Premium","rating":4.6,"distance":5, "latitude": 13.0012, "longitude": 80.2565},
{"name":"Kidzee Anna Nagar","type":"Preschool","address":"Golden Colony Anna Nagar Chennai","phone":"7708815710","timing":"10:00-17:00","age":"2-5","budget":"Standard","rating":4.4,"distance":4, "latitude": 13.0891, "longitude": 80.1912},
{"name":"Kidzee Pallikaranai","type":"Preschool+Daycare","address":"Jayachandran Nagar Pallikaranai Chennai","phone":"9176086849","timing":"9:00-17:00","age":"1-6","budget":"Standard","rating":4.2,"distance":7, "latitude": 12.9348, "longitude": 80.2137},
{"name":"Kidzee Royapettah","type":"Preschool","address":"Royapettah Chennai","phone":"9884207431","timing":"9:30-17:30","age":"2-5","budget":"Standard","rating":4.1,"distance":6, "latitude": 13.0537, "longitude": 80.2647},
{"name":"Kidzee Mambakkam","type":"Preschool","address":"Mambakkam Chennai","phone":"9877339922","timing":"9:30-17:30","age":"2-5","budget":"Premium","rating":4.8,"distance":10, "latitude": 12.8394, "longitude": 80.1581},
{"name":"My Child Play School","type":"Preschool+Daycare","address":"KK Nagar Chennai","phone":"9841547650","timing":"8:30-18:00","age":"1-7","budget":"Standard","rating":4.5,"distance":5, "latitude": 13.0348, "longitude": 80.1983},
{"name":"Little Pumpkien Ramapuram","type":"Preschool+Daycare","address":"EVP Santhosh Nagar Ramapuram Chennai","phone":"9840079417","timing":"8:30-18:30","age":"1-7","budget":"Standard","rating":4.4,"distance":6, "latitude": 13.0242, "longitude": 80.1798},
{"name":"Little Pumpkien Porur","type":"Daycare+Preschool","address":"Sabari Nagar Porur Chennai","phone":"7845005491","timing":"8:30-18:30","age":"1-8","budget":"Budget","rating":4.3,"distance":7, "latitude": 13.0382, "longitude": 80.1506},
{"name":"Little Pumpkien Mugalivakkam","type":"Preschool+Daycare","address":"Krishnaveni Nagar Chennai","phone":"9600805491","timing":"8:30-18:30","age":"1-7","budget":"Budget","rating":4.2,"distance":8, "latitude": 13.0184, "longitude": 80.1705},
{"name":"Little Pumpkien Manapakkam","type":"Daycare","address":"Marvel River View Manapakkam Chennai","phone":"7305615491","timing":"8:00-19:00","age":"1-10","budget":"Budget","rating":4.1,"distance":9, "latitude": 13.0202, "longitude": 80.1873},
{"name":"Dissney Play School","type":"Preschool+Daycare","address":"Lakshmi Nagar Nanganallur Chennai","phone":"9940229353","timing":"8:00-19:30","age":"1-7","budget":"Standard","rating":4.5,"distance":6, "latitude": 12.9806, "longitude": 80.1947},
{"name":"Carousel Play School","type":"Preschool","address":"Velachery Tambaram Rd Chennai","phone":"9884480305","timing":"9:00-14:00","age":"2-5","budget":"Premium","rating":4.6,"distance":5, "latitude": 12.9784, "longitude": 80.2184},
{"name":"Wisdom Play School","type":"Preschool+Daycare","address":"Nesapakkam Chennai","phone":"9095279898","timing":"8:30-18:00","age":"1-7","budget":"Standard","rating":4.4,"distance":5, "latitude": 13.0382, "longitude": 80.1983},
{"name":"Sree Krishna Play School","type":"Preschool+Daycare","address":"Medavakkam Chennai","phone":"9840278238","timing":"8:30-18:00","age":"1-7","budget":"Standard","rating":4.5,"distance":7, "latitude": 12.9234, "longitude": 80.1925},
{"name":"Kidzee Perumbakkam","type":"Preschool","address":"Perumbakkam Chennai","phone":"9150009277","timing":"9:00-16:00","age":"2-6","budget":"Standard","rating":4.3,"distance":8, "latitude": 12.9056, "longitude": 80.2084},
{"name":"Kidzee Purasawalkam","type":"Preschool","address":"Clement Rd Purasawalkam Chennai","phone":"9941004141","timing":"9:30-17:30","age":"2-5","budget":"Standard","rating":4.2,"distance":6, "latitude": 13.0851, "longitude": 80.2526},
{"name":"EuroKids Velachery","type":"Preschool+Daycare","address":"Velachery Main Rd Chennai","phone":"9840912345","timing":"9:00-18:00","age":"2-6","budget":"Premium","rating":4.7,"distance":6, "latitude": 12.9784, "longitude": 80.2184},
{"name":"EuroKids Tambaram","type":"Preschool","address":"Tambaram West Chennai","phone":"9884012456","timing":"9:30-16:00","age":"2-5","budget":"Standard","rating":4.5,"distance":9, "latitude": 12.9249, "longitude": 80.1012},
{"name":"EuroKids Anna Nagar","type":"Preschool+Daycare","address":"Anna Nagar Chennai","phone":"9940123456","timing":"9:00-18:30","age":"1.5-7","budget":"Premium","rating":4.8,"distance":5, "latitude": 13.0850, "longitude": 80.2189},
{"name":"Hello Kids T Nagar","type":"Preschool","address":"T Nagar Chennai","phone":"9840567891","timing":"9:30-15:00","age":"2-5","budget":"Budget","rating":4.2,"distance":4, "latitude": 13.0405, "longitude": 80.2337},
{"name":"Hello Kids Ambattur","type":"Preschool+Daycare","address":"Ambattur Chennai","phone":"9790012345","timing":"8:30-18:00","age":"1-7","budget":"Budget","rating":4.1,"distance":10, "latitude": 13.1143, "longitude": 80.1548},
{"name":"Bachpan Play School Porur","type":"Preschool+Daycare","address":"Porur Chennai","phone":"9003012345","timing":"9:00-18:00","age":"2-6","budget":"Standard","rating":4.4,"distance":7, "latitude": 13.0382, "longitude": 80.1506},
{"name":"Bachpan Play School Adyar","type":"Preschool","address":"Adyar Chennai","phone":"9840312345","timing":"9:30-15:30","age":"2-5","budget":"Standard","rating":4.3,"distance":5, "latitude": 13.0012, "longitude": 80.2565},
{"name":"Apple Kids Preschool","type":"Preschool+Daycare","address":"Kolathur Chennai","phone":"9600012345","timing":"8:30-18:30","age":"1-7","budget":"Standard","rating":4.5,"distance":8, "latitude": 13.1232, "longitude": 80.2104},
{"name":"Apple Kids Tambaram","type":"Preschool","address":"Tambaram Chennai","phone":"9840712345","timing":"9:00-16:00","age":"2-5","budget":"Budget","rating":4.2,"distance":9, "latitude": 12.9249, "longitude": 80.1012},
{"name":"Kangaroo Kids School","type":"Preschool","address":"Nungambakkam Chennai","phone":"9884212345","timing":"9:00-15:00","age":"2-6","budget":"Premium","rating":4.8,"distance":6, "latitude": 13.0583, "longitude": 80.2458},
{"name":"Tree House Play School","type":"Preschool+Daycare","address":"Perungudi Chennai","phone":"9940512345","timing":"8:30-18:30","age":"1-7","budget":"Standard","rating":4.4,"distance":8, "latitude": 12.9654, "longitude": 80.2461},
{"name":"Tree House Medavakkam","type":"Daycare","address":"Medavakkam Chennai","phone":"9840812345","timing":"8:00-19:00","age":"1-9","budget":"Standard","rating":4.3,"distance":9, "latitude": 12.9234, "longitude": 80.1925},
{"name":"Smart Kids Preschool","type":"Preschool","address":"Chromepet Chennai","phone":"9790312345","timing":"9:30-15:30","age":"2-5","budget":"Budget","rating":4.1,"distance":11, "latitude": 12.9515, "longitude": 80.1404},
{"name":"Little Millennium School","type":"Preschool+Daycare","address":"OMR Chennai","phone":"9884312345","timing":"9:00-18:00","age":"2-7","budget":"Premium","rating":4.7,"distance":10, "latitude": 12.8953, "longitude": 80.2268},
{"name":"Little Millennium Perungudi","type":"Preschool","address":"Perungudi Chennai","phone":"9003212345","timing":"9:30-16:00","age":"2-5","budget":"Premium","rating":4.6,"distance":9, "latitude": 12.9654, "longitude": 80.2461},
{"name":"Spring Board Academy","type":"Preschool+Daycare","address":"Thoraipakkam Chennai","phone":"9840911122","timing":"8:30-18:30","age":"1-7","budget":"Standard","rating":4.5,"distance":8, "latitude": 12.9432, "longitude": 80.2356},
{"name":"First Cry Preschool","type":"Preschool","address":"Navalur Chennai","phone":"9790211122","timing":"9:00-16:00","age":"2-5","budget":"Premium","rating":4.6,"distance":12, "latitude": 12.8461, "longitude": 80.2222},
{"name":"Bright Kids Preschool","type":"Preschool+Daycare","address":"Pallavaram Chennai","phone":"9940111122","timing":"8:30-18:00","age":"1-7","budget":"Budget","rating":4.2,"distance":10, "latitude": 12.9675, "longitude": 80.1491},
{"name":"Tiny Tots Play School","type":"Preschool","address":"Guindy Chennai","phone":"9884411122","timing":"9:30-15:00","age":"2-5","budget":"Standard","rating":4.3,"distance":6, "latitude": 13.0067, "longitude": 80.2206},
{"name":"Happy Kids Daycare","type":"Daycare","address":"Velachery Chennai","phone":"9840211122","timing":"8:00-19:30","age":"1-10","budget":"Standard","rating":4.4,"distance":7, "latitude": 12.9784, "longitude": 80.2184},
{"name":"Little Elly Preschool","type":"Preschool+Daycare","address":"Ashok Nagar Chennai","phone":"9841012233","timing":"9:00-18:00","age":"1-7","budget":"Premium","rating":4.6,"distance":6, "latitude": 13.0354, "longitude": 80.2123},
{"name":"Seed Play School Kottivakkam","type":"Preschool","address":"Kottivakkam Chennai","phone":"9884012233","timing":"9:30-15:30","age":"2-5","budget":"Standard","rating":4.4,"distance":8, "latitude": 12.9682, "longitude": 80.2581},
{"name":"Wow Kids Preschool","type":"Preschool+Daycare","address":"Velachery Chennai","phone":"9791012233","timing":"8:30-18:30","age":"1-7","budget":"Standard","rating":4.5,"distance":7, "latitude": 12.9784, "longitude": 80.2184},
{"name":"Pebbles Preschool","type":"Preschool","address":"Perambur Chennai","phone":"9940012233","timing":"9:30-15:00","age":"2-5","budget":"Standard","rating":4.3,"distance":9, "latitude": 13.1091, "longitude": 80.2458},
{"name":"Little Treasures Daycare","type":"Daycare","address":"Thiruvanmiyur Chennai","phone":"9840012233","timing":"8:00-19:00","age":"1-10","budget":"Standard","rating":4.4,"distance":8, "latitude": 12.9830, "longitude": 80.2594},
{"name":"FlintoClass Preschool","type":"Preschool+Daycare","address":"OMR Chennai","phone":"9884512233","timing":"9:00-18:30","age":"1-7","budget":"Premium","rating":4.7,"distance":10, "latitude": 12.8953, "longitude": 80.2268},
{"name":"Kudos Play School","type":"Preschool","address":"Tambaram Chennai","phone":"9600012233","timing":"9:30-15:30","age":"2-5","budget":"Budget","rating":4.2,"distance":11, "latitude": 12.9249, "longitude": 80.1012},
{"name":"Mom Care Montessori","type":"Preschool+Daycare","address":"Medavakkam Chennai","phone":"9840212233","timing":"8:30-18:00","age":"1-7","budget":"Standard","rating":4.4,"distance":9, "latitude": 12.9234, "longitude": 80.1925},
{"name":"Tiny Gems Playschool","type":"Preschool","address":"Anna Nagar Chennai","phone":"9003012233","timing":"9:00-15:00","age":"2-5","budget":"Premium","rating":4.6,"distance":5, "latitude": 13.0850, "longitude": 80.2189},
{"name":"Serene Kids Daycare","type":"Daycare","address":"Sholinganallur Chennai","phone":"9790312233","timing":"8:00-19:30","age":"1-10","budget":"Standard","rating":4.5,"distance":10, "latitude": 12.8953, "longitude": 80.2268},
{"name":"Little Millennium Preschool - Kundrathur","type":"Preschool+Daycare","address":"206, Sambandham Nagar, Kundrathur, Chennai","phone":"07972263279","timing":"8:30-18:30","age":"2-6","budget":"Standard","rating":4.9,"distance":5, "latitude": 12.9972, "longitude": 80.0971},
{"name":"Aura Cubs PreSchool & DayCare","type":"Preschool+Daycare","address":"no 1, Shakthi nagar annexure, 2nd St, Mangadu, Chennai","phone":"08682993999","timing":"8:00-18:00","age":"2-6","budget":"Standard","rating":5.0,"distance":3, "latitude": 13.0475, "longitude": 80.1234},
{"name":"FunStone Play School And Day Care","type":"Preschool+Daycare","address":"no:2, Sannathi St, near LIC, Poonamallee, Chennai","phone":"07904530035","timing":"9:00-18:00","age":"2-6","budget":"Standard","rating":4.9,"distance":4, "latitude": 13.0489, "longitude": 80.1114},
{"name":"KLAY Anna Nagar","type":"Preschool+Daycare","address":"H-1982, H Block, 15th Main Rd, Anna Nagar West, Chennai","phone":"07676708888","timing":"8:30-18:30","age":"1.5-6","budget":"Premium","rating":4.9,"distance":6, "latitude": 13.0850, "longitude": 80.2104},
{"name":"Little Millennium Preschool - Porur Gardens","type":"Preschool+Daycare","address":"No 76-77C, 3rd Main Road, Porur Gardens, Vanagaram, Chennai","phone":"09962101060","timing":"9:00-18:00","age":"2-6","budget":"Premium","rating":5.0,"distance":4, "latitude": 13.0402, "longitude": 80.1584}
]
